{"event_id":"sc7-001","ts":"2025-01-18T14:00:00Z","provider":"okta","user":"remote.contractor@consulting.biz","action":"login_attempt","source_ip":"76.121.44.88","country":"US","city":"Denver","lat":39.7392,"lon":-104.9903,"user_agent":"Mozilla/5.0 (Windows NT 10.0; Win64; x64) Chrome/121.0","device_id":"dev-contractor-home","auth_method":"password","result":"success","failure_reason":null}
{"event_id":"sc7-002","ts":"2025-01-18T15:00:00Z","provider":"okta","user":"remote.contractor@consulting.biz","action":"login_attempt","source_ip":"76.121.44.88","country":"US","city":"Denver","lat":39.7392,"lon":-104.9903,"user_agent":"Mozilla/5.0 (Windows NT 10.0; Win64; x64) Chrome/121.0","device_id":"dev-contractor-home","auth_method":"password","result":"success","failure_reason":null}
{"event_id":"sc7-003","ts":"2025-01-18T15:30:00Z","provider":"okta","user":"remote.contractor@consulting.biz","action":"login_attempt","source_ip":"185.156.73.22","country":"UA","city":"Kyiv","lat":50.4501,"lon":30.5234,"user_agent":"Mozilla/5.0 (Windows NT 10.0; Win64; x64) Chrome/121.0","device_id":"dev-contractor-home","auth_method":"password","result":"success","failure_reason":null}
{"event_id":"sc7-004","ts":"2025-01-18T16:00:00Z","provider":"okta","user":"remote.contractor@consulting.biz","action":"login_attempt","source_ip":"103.208.86.44","country":"IN","city":"Mumbai","lat":19.0760,"lon":72.8777,"user_agent":"Mozilla/5.0 (Windows NT 10.0; Win64; x64) Chrome/121.0","device_id":"dev-contractor-home","auth_method":"password","result":"success","failure_reason":null}
{"event_id":"sc7-005","ts":"2025-01-18T16:30:00Z","provider":"okta","user":"remote.contractor@consulting.biz","action":"login_attempt","source_ip":"45.89.127.33","country":"BR","city":"Sao Paulo","lat":-23.5505,"lon":-46.6333,"user_agent":"Mozilla/5.0 (Windows NT 10.0; Win64; x64) Chrome/121.0","device_id":"dev-contractor-home","auth_method":"password","result":"success","failure_reason":null}
{"event_id":"sc7-006","ts":"2025-01-18T14:30:00Z","provider":"okta","user":"staff.member@consulting.biz","action":"login_attempt","source_ip":"10.0.0.100","country":"US","city":"New York","lat":40.7128,"lon":-74.006,"user_agent":"Mozilla/5.0 (Macintosh; Intel Mac OS X 10_15_7) Chrome/121.0","device_id":"dev-staff-mac","auth_method":"mfa","result":"success","failure_reason":null}
